{"type":"FeatureCollection","features":[{"type":"Feature","properties":{"racename":"Run Crandic","city":"Iowa City","state":"IA","region":"midwest","date":"April","type_mara":"x","type_half":"x","type_relay":"","type_10k":"","type_5k":"x","url":"http://runcrandic.com/","source":"https://runningintheusa.com/classic/list/ia/upcoming/marathon","name":"Iowa City, IA","desc":"Iowa City, Johnson County, IA, US","color":"","precision":"city/town"},"geometry":{"type":"Point","coordinates":[-91.529911,41.661256]}},{"type":"Feature","properties":{"racename":"Main to Main","city":"Osage","state":"IA","region":"midwest","date":"August","type_mara":"x","type_half":"x","type_relay":"","type_10k":"x","type_5k":"","url":"https://www.cedarrivercomplex.com/main-to-main-marathon","source":"https://runningintheusa.com/classic/list/ia/upcoming/marathon","name":"Osage, IA","desc":"Osage, Mitchell County, IA, US","color":"","precision":"city/town"},"geometry":{"type":"Point","coordinates":[-92.811162,43.284081]}},{"type":"Feature","properties":{"racename":"University of Okoboji","city":"Okoboji","state":"IA","region":"midwest","date":"July","type_mara":"x","type_half":"x","type_relay":"","type_10k":"x","type_5k":"","url":"https://www.allsportcentral.com/eventInfo.cfm?eventID=66841","source":"http://www.findmymarathon.com/calendar-state.php?state=Iowa","name":"Okoboji, IA","desc":"Okoboji, Dickinson County, IA, US","color":"","precision":"city/town"},"geometry":{"type":"Point","coordinates":[-95.148312,43.386359]}},{"type":"Feature","properties":{"racename":"Run4Troops","city":"Dyersville","state":"IA","region":"midwest","date":"June","type_mara":"x","type_half":"","type_relay":"x","type_10k":"","type_5k":"","url":"http://www.run4troops.com/","source":"https://runningintheusa.com/classic/list/ia/upcoming/marathon","name":"Dyersville, IA","desc":"Dyersville, Dubuque County, IA, US","color":"","precision":"city/town"},"geometry":{"type":"Point","coordinates":[-91.122914,42.48444]}},{"type":"Feature","properties":{"racename":"Des Moines","city":"Des Moines","state":"IA","region":"midwest","date":"October","type_mara":"x","type_half":"x","type_relay":"x","type_10k":"","type_5k":"x","url":"https://www.desmoinesmarathon.com","source":"http://www.findmymarathon.com/calendar-state.php?state=Iowa","name":"Des Moines, IA","desc":"Des Moines, Polk County, IA, US","color":"","precision":"city/town"},"geometry":{"type":"Point","coordinates":[-93.603715,41.591064]}},{"type":"Feature","properties":{"racename":"Spring chance BQ.2","city":"Geneva","state":"IL","region":"midwest","date":"April","type_mara":"x","type_half":"","type_relay":"","type_10k":"","type_5k":"","url":"http://www.bq2races.com/","source":"https://runningintheusa.com/classic/list/il/upcoming/marathon","name":"Geneva, IL","desc":"Geneva, Kane County, IL, US","color":"","precision":"city/town"},"geometry":{"type":"Point","coordinates":[-88.305352,41.887528]}},{"type":"Feature","properties":{"racename":"Illinois","city":"Champlain","state":"IL","region":"midwest","date":"April","type_mara":"x","type_half":"x","type_relay":"x","type_10k":"x","type_5k":"x","url":"http://illinoismarathon.com/","source":"https://runningintheusa.com/classic/list/il/upcoming/marathon","name":"Champlain, IL","desc":"Champlain, Les Chenaux, QC, CA","color":"","precision":"city/town"},"geometry":{"type":"Point","coordinates":[-88.2434,40.1164]}},{"type":"Feature","properties":{"racename":"Straved Rock Country","city":"Ottawa","state":"IL","region":"midwest","date":"May","type_mara":"x","type_half":"x","type_relay":"","type_10k":"","type_5k":"x","url":"https://www.runsrc.com/","source":"http://www.findmymarathon.com/calendar-state.php?state=Illinois","name":"Ottawa, IL","desc":"Ottawa, LaSalle County, IL, US","color":"","precision":"city/town"},"geometry":{"type":"Point","coordinates":[-88.845436,41.351663]}},{"type":"Feature","properties":{"racename":"Chicagoland Spring","city":"Schaumburg","state":"IL","region":"midwest","date":"May","type_mara":"x","type_half":"x","type_relay":"","type_10k":"","type_5k":"","url":"https://allcommunityevents.com/chicagolandspringmarathon","source":"http://www.findmymarathon.com/calendar-state.php?state=Illinois","name":"Schaumburg, IL","desc":"Schaumburg, Cook County, IL, US","color":"","precision":"city/town"},"geometry":{"type":"Point","coordinates":[-88.083406,42.033361]}},{"type":"Feature","properties":{"racename":"Rockford","city":"Rockford","state":"IL","region":"midwest","date":"May","type_mara":"x","type_half":"x","type_relay":"","type_10k":"x","type_5k":"","url":"https://www.chicagoevents.com/events/rockfordmarathon/","source":"http://www.findmymarathon.com/calendar-state.php?state=Illinois","name":"Rockford, IL","desc":"Rockford, Winnebago County, IL, US","color":"","precision":"city/town"},"geometry":{"type":"Point","coordinates":[-89.093966,42.271395]}},{"type":"Feature","properties":{"racename":"Road to Carthage","city":"Nauvoo","state":"IL","region":"midwest","date":"May","type_mara":"x","type_half":"x","type_relay":"x","type_10k":"","type_5k":"","url":"https://www.roadtocarthagemarathon.com/","source":"https://runningintheusa.com/classic/list/il/upcoming/marathon","name":"Nauvoo, IL","desc":"Nauvoo, Hancock County, IL, US","color":"","precision":"city/town"},"geometry":{"type":"Point","coordinates":[-91.384875,40.550042]}},{"type":"Feature","properties":{"racename":"Tunnel Hill","city":"Vienna","state":"IL","region":"midwest","date":"November","type_mara":"x","type_half":"","type_relay":"","type_10k":"","type_5k":"","url":"https://runsignup.com/Race/IL/Vienna/TunnelHillMarathon","source":"https://runningintheusa.com/classic/list/il/upcoming/marathon","name":"Vienna, IL","desc":"Vienna, Vienna, AT","color":"","precision":"city/town"},"geometry":{"type":"Point","coordinates":[-88.8978,37.4153]}},{"type":"Feature","properties":{"racename":"Des Plaines River Trail Races","city":"Libertyville","state":"IL","region":"midwest","date":"October","type_mara":"x","type_half":"x","type_relay":"","type_10k":"","type_5k":"","url":"http://www.desplainesrivertrailraces.com/","source":"https://runningintheusa.com/classic/list/il/upcoming/marathon","name":"Libertyville, IL","desc":"Libertyville, Lake County, IL, US","color":"","precision":"city/town"},"geometry":{"type":"Point","coordinates":[-87.95313,42.283079]}},{"type":"Feature","properties":{"racename":"Chicago","city":"Chicago","state":"IL","region":"midwest","date":"October","type_mara":"x","type_half":"","type_relay":"","type_10k":"","type_5k":"x","url":"https://www.chicagomarathon.com/","source":"https://runningintheusa.com/classic/list/il/upcoming/marathon","name":"Chicago, IL","desc":"Chicago, Cook County, IL, US","color":"","precision":"city/town"},"geometry":{"type":"Point","coordinates":[-87.624421,41.875555]}},{"type":"Feature","properties":{"racename":"Whiskeydaddle Races","city":"Peoria","state":"IL","region":"midwest","date":"October","type_mara":"x","type_half":"x","type_relay":"x","type_10k":"","type_5k":"x","url":"https://whiskeydaddle.com/","source":"https://runningintheusa.com/classic/list/il/upcoming/marathon","name":"Peoria, IL","desc":"Peoria, Peoria County, IL, US","color":"","precision":"city/town"},"geometry":{"type":"Point","coordinates":[-89.589101,40.693861]}},{"type":"Feature","properties":{"racename":"Springfield","city":"Springfield","state":"IL","region":"midwest","date":"October","type_mara":"x","type_half":"x","type_relay":"x","type_10k":"","type_5k":"x","url":"https://springfieldmarathon.com","source":"http://www.findmymarathon.com/calendar-state.php?state=Illinois","name":"Springfield, IL","desc":"Springfield, Sangamon County, IL, US","color":"","precision":"city/town"},"geometry":{"type":"Point","coordinates":[-89.644369,39.798976]}},{"type":"Feature","properties":{"racename":"Shawnee","city":"Harrisburg","state":"IL","region":"midwest","date":"October","type_mara":"x","type_half":"x","type_relay":"","type_10k":"x","type_5k":"","url":"http://shawneemarathon.com/","source":"https://runningintheusa.com/classic/list/il/upcoming/marathon","name":"Harrisburg, IL","desc":"Harrisburg, Saline County, IL, US","color":"","precision":"city/town"},"geometry":{"type":"Point","coordinates":[-88.540521,37.7385]}},{"type":"Feature","properties":{"racename":"Last Chance BQ.2","city":"Geneva","state":"IL","region":"midwest","date":"September","type_mara":"x","type_half":"","type_relay":"","type_10k":"","type_5k":"","url":"http://www.bq2races.com/","source":"https://runningintheusa.com/classic/list/il/upcoming/marathon","name":"Geneva, IL","desc":"Geneva, Kane County, IL, US","color":"","precision":"city/town"},"geometry":{"type":"Point","coordinates":[-88.305352,41.887528]}},{"type":"Feature","properties":{"racename":"Fox Valley","city":"St. Charles","state":"IL","region":"midwest","date":"September","type_mara":"x","type_half":"x","type_relay":"","type_10k":"","type_5k":"","url":"http://www.fv26.com/","source":"https://runningintheusa.com/classic/list/il/upcoming/marathon","name":"St. Charles, IL","desc":"St. Charles, Kane County, IL, US","color":"","precision":"city/town"},"geometry":{"type":"Point","coordinates":[-88.31249,41.913956]}},{"type":"Feature","properties":{"racename":"Quad Cities","city":"Moline","state":"IL","region":"midwest","date":"September","type_mara":"x","type_half":"x","type_relay":"x","type_10k":"","type_5k":"x","url":"http://qcmarathon.org/","source":"https://runningintheusa.com/classic/list/il/upcoming/marathon","name":"Moline, IL","desc":"Moline, Rock Island County, IL, US","color":"","precision":"city/town"},"geometry":{"type":"Point","coordinates":[-90.515134,41.5067]}},{"type":"Feature","properties":{"racename":"Belleville Main Street","city":"Belleville","state":"IL","region":"midwest","date":"September","type_mara":"x","type_half":"","type_relay":"","type_10k":"","type_5k":"","url":"http://www.bellevillemarathon.com/","source":"http://www.findmymarathon.com/calendar-state.php?state=Illinois","name":"Belleville, IL","desc":"Belleville, Saint Clair County, IL, US","color":"","precision":"city/town"},"geometry":{"type":"Point","coordinates":[-89.983993,38.52005]}},{"type":"Feature","properties":{"racename":"Martian Invasion of Races","city":"Dearborn","state":"MI","region":"midwest","date":"April","type_mara":"x","type_half":"x","type_relay":"","type_10k":"x","type_5k":"x","url":"http://www.martianraces.com/","source":"https://runningintheusa.com/classic/list/mi/upcoming/marathon","name":"Dearborn, MI","desc":"Dearborn, Wayne County, MI, US","color":"","precision":"city/town"},"geometry":{"type":"Point","coordinates":[-83.176314,42.32226]}},{"type":"Feature","properties":{"racename":"Hurt the Dirt at Luton Park Trails","city":"Rockford","state":"MI","region":"midwest","date":"April","type_mara":"x","type_half":"x","type_relay":"","type_10k":"","type_5k":"","url":"https://hurtthedirt.com/","source":"https://runningintheusa.com/classic/list/mi/upcoming/marathon","name":"Rockford, MI","desc":"Rockford, Kent County, MI, US","color":"","precision":"city/town"},"geometry":{"type":"Point","coordinates":[-85.559604,43.119721]}},{"type":"Feature","properties":{"racename":"Trail","city":"Pinckney","state":"MI","region":"midwest","date":"April","type_mara":"x","type_half":"x","type_relay":"","type_10k":"","type_5k":"","url":"http://trailmarathon.com/","source":"https://runningintheusa.com/classic/list/mi/upcoming/marathon","name":"Pinckney, MI","desc":"Pinckney, Livingston County, MI, US","color":"","precision":"city/town"},"geometry":{"type":"Point","coordinates":[-83.946336,42.456701]}},{"type":"Feature","properties":{"racename":"Milennium Meadows","city":"Grand Rapids","state":"MI","region":"midwest","date":"August","type_mara":"x","type_half":"x","type_relay":"","type_10k":"","type_5k":"","url":"https://runsignup.com/Race/MI/GrandRapids/MillenniumMeadowsMarathon?aflt_token=vkmwDmweQ4iCYn8otSOOnKQ3vCO8buOw","source":"https://runningintheusa.com/classic/list/mi/upcoming/marathon","name":"Grand Rapids, MI","desc":"Grand Rapids, Kent County, MI, US","color":"","precision":"city/town"},"geometry":{"type":"Point","coordinates":[-85.667864,42.963241]}},{"type":"Feature","properties":{"racename":"Ground Hog","city":"Grand Rapids","state":"MI","region":"midwest","date":"February","type_mara":"x","type_half":"x","type_relay":"","type_10k":"","type_5k":"","url":"http://www.groundhogmarathon.com/","source":"https://runningintheusa.com/classic/list/mi/upcoming/marathon","name":"Grand Rapids, MI","desc":"Grand Rapids, Kent County, MI, US","color":"","precision":"city/town"},"geometry":{"type":"Point","coordinates":[-85.667864,42.963241]}},{"type":"Feature","properties":{"racename":"Waugoshance Trail","city":"Mackinaw City","state":"MI","region":"midwest","date":"July","type_mara":"x","type_half":"x","type_relay":"x","type_10k":"","type_5k":"","url":"https://www.halfmarathons.net/michigan-waugoshance-trail-marathon-half-marathon-relay/","source":"http://www.findmymarathon.com/calendar-state.php?state=Michigan","name":"Mackinaw City, MI","desc":"Mackinaw City, Cheboygan County, MI, US","color":"","precision":"city/town"},"geometry":{"type":"Point","coordinates":[-84.727828,45.783901]}},{"type":"Feature","properties":{"racename":"Grand Island Trail","city":"Munising","state":"MI","region":"midwest","date":"July","type_mara":"x","type_half":"x","type_relay":"","type_10k":"","type_5k":"","url":"https://www.greatlakesendurance.com/michigan-races/grand-island-trail-marathon.html","source":"http://www.findmymarathon.com/calendar-state.php?state=Michigan","name":"Munising, MI","desc":"Munising, Alger County, MI, US","color":"","precision":"city/town"},"geometry":{"type":"Point","coordinates":[-86.649447,46.409777]}},{"type":"Feature","properties":{"racename":"Yankee Springs Trail","city":"Middleville","state":"MI","region":"midwest","date":"June","type_mara":"x","type_half":"x","type_relay":"","type_10k":"x","type_5k":"","url":"http://switchbackendurance.com/races/yankee-springs-trail-runs/","source":"https://runningintheusa.com/classic/list/mi/upcoming/marathon","name":"Middleville, MI","desc":"Middleville, Barry County, MI, US","color":"","precision":"city/town"},"geometry":{"type":"Point","coordinates":[-85.46196,42.713089]}},{"type":"Feature","properties":{"racename":"One in Five","city":"Walker","state":"MI","region":"midwest","date":"June","type_mara":"x","type_half":"","type_relay":"x","type_10k":"x","type_5k":"","url":"http://1in5marathonrelay.com/","source":"https://runningintheusa.com/classic/list/mi/upcoming/marathon","name":"Walker, MI","desc":"Walker, Kent County, MI, US","color":"","precision":"city/town"},"geometry":{"type":"Point","coordinates":[-85.774191,43.005597]}},{"type":"Feature","properties":{"racename":"Whitefish Point","city":"Paradise","state":"MI","region":"midwest","date":"June","type_mara":"x","type_half":"","type_relay":"","type_10k":"","type_5k":"","url":"http://whitefishpointmarathon.org/","source":"https://runningintheusa.com/classic/list/mi/upcoming/marathon","name":"Paradise, MI","desc":"Paradise, Chippewa County, MI, US","color":"","precision":"city/town"},"geometry":{"type":"Point","coordinates":[-85.037587,46.627522]}},{"type":"Feature","properties":{"racename":"Charlevoix","city":"Charleviox","state":"MI","region":"midwest","date":"June","type_mara":"x","type_half":"x","type_relay":"","type_10k":"x","type_5k":"x","url":"https://www.charlevoixmarathon.com/","source":"https://runningintheusa.com/classic/list/mi/upcoming/marathon","name":"Charleviox, MI","desc":"MI, US","color":"","precision":"state/province"},"geometry":{"type":"Point","coordinates":[-84.682435,43.621196]}},{"type":"Feature","properties":{"racename":"Two Hearted Trail","city":"Paradise","state":"MI","region":"midwest","date":"June","type_mara":"x","type_half":"x","type_relay":"","type_10k":"","type_5k":"","url":"https://www.greatlakesendurance.com/michigan-races/two-hearted-trail-run.html","source":"http://www.findmymarathon.com/calendar-state.php?state=Michigan","name":"Paradise, MI","desc":"Paradise, Chippewa County, MI, US","color":"","precision":"city/town"},"geometry":{"type":"Point","coordinates":[-85.037587,46.627522]}},{"type":"Feature","properties":{"racename":"Ann Arbor","city":"Ann Arbor","state":"MI","region":"midwest","date":"March","type_mara":"x","type_half":"x","type_relay":"x","type_10k":"x","type_5k":"x","url":"https://epicraces.com/events/marathon/","source":"https://runningintheusa.com/classic/list/mi/upcoming/marathon","name":"Ann Arbor, MI","desc":"Ann Arbor, Washtenaw County, MI, US","color":"","precision":"city/town"},"geometry":{"type":"Point","coordinates":[-83.731229,42.268157]}},{"type":"Feature","properties":{"racename":"Kalamazoo","city":"Kalamazoo","state":"MI","region":"midwest","date":"May","type_mara":"x","type_half":"x","type_relay":"","type_10k":"x","type_5k":"x","url":"https://thekalamazoomarathon.com/","source":"https://runningintheusa.com/classic/list/mi/upcoming/marathon","name":"Kalamazoo, MI","desc":"Kalamazoo, Kalamazoo County, MI, US","color":"","precision":"city/town"},"geometry":{"type":"Point","coordinates":[-85.587229,42.291707]}},{"type":"Feature","properties":{"racename":"Stafford's Top of Michigan","city":"Charleviox","state":"MI","region":"midwest","date":"May","type_mara":"x","type_half":"x","type_relay":"","type_10k":"x","type_5k":"x","url":"http://www.trailscouncil.org/top-of-michigan-marathon/","source":"https://runningintheusa.com/classic/list/mi/upcoming/marathon","name":"Charleviox, MI","desc":"MI, US","color":"","precision":"state/province"},"geometry":{"type":"Point","coordinates":[-84.682435,43.621196]}},{"type":"Feature","properties":{"racename":"Traverse City Track Club Bayshore","city":"Traverse City","state":"MI","region":"midwest","date":"May","type_mara":"x","type_half":"x","type_relay":"","type_10k":"x","type_5k":"","url":"https://www.bayshoremarathon.org/","source":"https://runningintheusa.com/classic/list/mi/upcoming/marathon","name":"Traverse City, MI","desc":"Traverse City, Grand Traverse County, MI, US","color":"","precision":"city/town"},"geometry":{"type":"Point","coordinates":[-85.61653,44.760644]}},{"type":"Feature","properties":{"racename":"Run the Bends","city":"Shelby Township","state":"MI","region":"midwest","date":"November","type_mara":"x","type_half":"x","type_relay":"","type_10k":"","type_5k":"","url":"https://move-itfitness.com/races/run-the-bends-marathon/","source":"https://runningintheusa.com/classic/list/mi/upcoming/marathon","name":"Shelby Township, MI","desc":"Shelby Charter Township, Macomb County, MI, US","color":"","precision":"city/town"},"geometry":{"type":"Point","coordinates":[-83.034262,42.670219]}},{"type":"Feature","properties":{"racename":"Stony Creek","city":"Utica","state":"MI","region":"midwest","date":"November","type_mara":"x","type_half":"x","type_relay":"x","type_10k":"x","type_5k":"","url":"http://stonycreekmarathon.com/","source":"https://runningintheusa.com/classic/list/mi/upcoming/marathon","name":"Utica, MI","desc":"Utica, Macomb County, MI, US","color":"","precision":"city/town"},"geometry":{"type":"Point","coordinates":[-83.033538,42.626145]}},{"type":"Feature","properties":{"racename":"Sleeping Bear","city":"Empire","state":"MI","region":"midwest","date":"October","type_mara":"x","type_half":"x","type_relay":"","type_10k":"","type_5k":"x","url":"https://www.enduranceevolution.com/sleeping-bear-marathon-half-marathon-5k/","source":"http://www.findmymarathon.com/calendar-state.php?state=Michigan","name":"Empire, MI","desc":"Empire, Leelanau County, MI, US","color":"","precision":"city/town"},"geometry":{"type":"Point","coordinates":[-86.060093,44.811108]}},{"type":"Feature","properties":{"racename":"Detroit Free Press","city":"Detroit","state":"MI","region":"midwest","date":"October","type_mara":"x","type_half":"x","type_relay":"x","type_10k":"","type_5k":"x","url":"https://www.freepmarathon.com/","source":"http://www.findmymarathon.com/calendar-state.php?state=Michigan","name":"Detroit, MI","desc":"Detroit, Wayne County, MI, US","color":"","precision":"city/town"},"geometry":{"type":"Point","coordinates":[-83.056737,42.348664]}},{"type":"Feature","properties":{"racename":"Grand Rapids","city":"Grand Rapids","state":"MI","region":"midwest","date":"October","type_mara":"x","type_half":"x","type_relay":"x","type_10k":"","type_5k":"","url":"http://grandrapidsmarathon.com/","source":"http://www.findmymarathon.com/calendar-state.php?state=Michigan","name":"Grand Rapids, MI","desc":"Grand Rapids, Kent County, MI, US","color":"","precision":"city/town"},"geometry":{"type":"Point","coordinates":[-85.667864,42.963241]}},{"type":"Feature","properties":{"racename":"Marquette","city":"Marquette","state":"MI","region":"midwest","date":"September","type_mara":"x","type_half":"x","type_relay":"","type_10k":"","type_5k":"x","url":"http://marquettemarathon.com/2016website/","source":"http://www.findmymarathon.com/calendar-state.php?state=Michigan","name":"Marquette, MI","desc":"Marquette, Marquette County, MI, US","color":"","precision":"city/town"},"geometry":{"type":"Point","coordinates":[-87.396433,46.543491]}},{"type":"Feature","properties":{"racename":"Run Woodstock Mellow","city":"Pinckney","state":"MI","region":"midwest","date":"September","type_mara":"x","type_half":"x","type_relay":"","type_10k":"","type_5k":"x","url":"http://www.runwoodstock.com/","source":"http://www.findmymarathon.com/calendar-state.php?state=Michigan","name":"Pinckney, MI","desc":"Pinckney, Livingston County, MI, US","color":"","precision":"city/town"},"geometry":{"type":"Point","coordinates":[-83.946336,42.456701]}},{"type":"Feature","properties":{"racename":"Last Chance BQ.2","city":"Grand Rapids","state":"MI","region":"midwest","date":"September","type_mara":"x","type_half":"","type_relay":"","type_10k":"","type_5k":"","url":"https://runsignup.com/Race/MI/GrandRapids/LastChanceBQGR","source":"http://www.findmymarathon.com/calendar-state.php?state=Michigan","name":"Grand Rapids, MI","desc":"Grand Rapids, Kent County, MI, US","color":"","precision":"city/town"},"geometry":{"type":"Point","coordinates":[-85.667864,42.963241]}},{"type":"Feature","properties":{"racename":"Holland Haven","city":"Holland","state":"MI","region":"midwest","date":"September","type_mara":"x","type_half":"x","type_relay":"","type_10k":"","type_5k":"","url":"https://runsignup.com/Race/MI/Holland/2017HollandHavenMarathon","source":"https://runningintheusa.com/classic/list/mi/upcoming/marathon","name":"Holland, MI","desc":"Holland, Ottawa County, MI, US","color":"","precision":"city/town"},"geometry":{"type":"Point","coordinates":[-86.109083,42.787602]}},{"type":"Feature","properties":{"racename":"Oktoberfest","city":"Spring Lake","state":"MI","region":"midwest","date":"September","type_mara":"x","type_half":"x","type_relay":"","type_10k":"","type_5k":"x","url":"http://www.oktoberfestmarathon.com/","source":"https://runningintheusa.com/classic/list/mi/upcoming/marathon","name":"Spring Lake, MI","desc":"Spring Lake, Ottawa County, MI, US","color":"","precision":"city/town"},"geometry":{"type":"Point","coordinates":[-86.196997,43.076963]}},{"type":"Feature","properties":{"racename":"Hungerford Trail","city":"Big Rapids","state":"MI","region":"midwest","date":"September","type_mara":"x","type_half":"x","type_relay":"","type_10k":"","type_5k":"","url":"http://ultrasignup.com/register.aspx?did=60866","source":"https://runningintheusa.com/classic/list/mi/upcoming/marathon","name":"Big Rapids, MI","desc":"Big Rapids, Mecosta County, MI, US","color":"","precision":"city/town"},"geometry":{"type":"Point","coordinates":[-85.483656,43.698078]}},{"type":"Feature","properties":{"racename":"Run for the Lakes","city":"Nisswa","state":"MN","region":"midwest","date":"April","type_mara":"x","type_half":"x","type_relay":"x","type_10k":"x","type_5k":"x","url":"http://runforthelakes.com/","source":"http://findmymarathon.com/calendar-state.php?state=Minnesota","name":"Nisswa, MN","desc":"Nisswa, Crow Wing County, MN, US","color":"","precision":"city/town"},"geometry":{"type":"Point","coordinates":[-94.288609,46.520522]}},{"type":"Feature","properties":{"racename":"Zoom! Yah! Yah! Indoor","city":"Northfield","state":"MN","region":"midwest","date":"January","type_mara":"x","type_half":"","type_relay":"","type_10k":"","type_5k":"","url":"http://zoomyahyah.com/","source":"http://findmymarathon.com/calendar-state.php?state=Minnesota","name":"Northfield, MN","desc":"Northfield, Rice County, MN, US","color":"","precision":"city/town"},"geometry":{"type":"Point","coordinates":[-93.161159,44.458204]}},{"type":"Feature","properties":{"racename":"Grandma's","city":"Duluth","state":"MN","region":"midwest","date":"June","type_mara":"x","type_half":"x","type_relay":"","type_10k":"","type_5k":"x","url":"https://grandmasmarathon.com/","source":"http://findmymarathon.com/calendar-state.php?state=Minnesota","name":"Duluth, MN","desc":"Duluth, Saint Louis County, MN, US","color":"","precision":"city/town"},"geometry":{"type":"Point","coordinates":[-92.125122,46.772932]}},{"type":"Feature","properties":{"racename":"Eugene Curnow Trail","city":"Duluth","state":"MN","region":"midwest","date":"June","type_mara":"x","type_half":"","type_relay":"","type_10k":"","type_5k":"","url":"https://www.curnowmarathon.com/","source":"http://findmymarathon.com/calendar-state.php?state=Minnesota","name":"Duluth, MN","desc":"Duluth, Saint Louis County, MN, US","color":"","precision":"city/town"},"geometry":{"type":"Point","coordinates":[-92.125122,46.772932]}},{"type":"Feature","properties":{"racename":"Lake Wobegon Trail","city":"St. Joseph","state":"MN","region":"midwest","date":"May","type_mara":"x","type_half":"","type_relay":"","type_10k":"","type_5k":"","url":"http://www.lakewobegontrailmarathon.org/","source":"http://findmymarathon.com/calendar-state.php?state=Minnesota","name":"St. Joseph, MN","desc":"St. Joseph, Stearns County, MN, US","color":"","precision":"city/town"},"geometry":{"type":"Point","coordinates":[-94.318323,45.564965]}},{"type":"Feature","properties":{"racename":"Med-City","city":"Rochester","state":"MN","region":"midwest","date":"May","type_mara":"x","type_half":"x","type_relay":"x","type_10k":"","type_5k":"x","url":"https://www.medcitymarathon.com/","source":"http://findmymarathon.com/calendar-state.php?state=Minnesota","name":"Rochester, MN","desc":"Rochester, Olmsted County, MN, US","color":"","precision":"city/town"},"geometry":{"type":"Point","coordinates":[-92.463021,44.023327]}},{"type":"Feature","properties":{"racename":"MN Indoor","city":"St. Michael","state":"MN","region":"midwest","date":"November","type_mara":"x","type_half":"x","type_relay":"","type_10k":"x","type_5k":"x","url":"https://mnindoormarathon.com/","source":"http://findmymarathon.com/calendar-state.php?state=Minnesota","name":"St. Michael, MN","desc":"St. Michael, Wright County, MN, US","color":"","precision":"city/town"},"geometry":{"type":"Point","coordinates":[-93.664808,45.210202]}},{"type":"Feature","properties":{"racename":"Twin Cities","city":"St. Paul","state":"MN","region":"midwest","date":"October","type_mara":"x","type_half":"","type_relay":"","type_10k":"x","type_5k":"x","url":"https://www.tcmevents.org/","source":"http://findmymarathon.com/calendar-state.php?state=Minnesota","name":"St. Paul, MN","desc":"Saint Paul, Ramsey County, MN, US","color":"","precision":"city/town"},"geometry":{"type":"Point","coordinates":[-93.101503,44.950404]}},{"type":"Feature","properties":{"racename":"Bemidji Blue Ox","city":"Bemidji","state":"MN","region":"midwest","date":"October","type_mara":"x","type_half":"x","type_relay":"","type_10k":"x","type_5k":"x","url":"http://www.bemidjiblueoxmarathon.com/","source":"http://findmymarathon.com/calendar-state.php?state=Minnesota","name":"Bemidji, MN","desc":"Bemidji, Beltrami County, MN, US","color":"","precision":"city/town"},"geometry":{"type":"Point","coordinates":[-94.890802,47.478654]}},{"type":"Feature","properties":{"racename":"Mankato","city":"Mankato","state":"MN","region":"midwest","date":"October","type_mara":"x","type_half":"x","type_relay":"x","type_10k":"x","type_5k":"x","url":"https://www.mankatomarathon.com/","source":"http://findmymarathon.com/calendar-state.php?state=Minnesota","name":"Mankato, MN","desc":"Mankato, Blue Earth County, MN, US","color":"","precision":"city/town"},"geometry":{"type":"Point","coordinates":[-93.99935,44.163466]}},{"type":"Feature","properties":{"racename":"Mooose Mountain","city":"Lutsen","state":"MN","region":"midwest","date":"September","type_mara":"x","type_half":"","type_relay":"","type_10k":"","type_5k":"","url":"https://www.superiorfalltrailrace.com/2018-moose-mountain-marathon-runner-welcome/","source":"http://findmymarathon.com/calendar-state.php?state=Minnesota","name":"Lutsen, MN","desc":"Lutsen, Cook County, MN, US","color":"","precision":"city/town"},"geometry":{"type":"Point","coordinates":[-90.674858,47.647119]}},{"type":"Feature","properties":{"racename":"Walker North Country","city":"Walker","state":"MN","region":"midwest","date":"September","type_mara":"x","type_half":"x","type_relay":"","type_10k":"x","type_5k":"","url":"http://walkerareacommunitycenter.com/north-country-marathon","source":"http://findmymarathon.com/calendar-state.php?state=Minnesota","name":"Walker, MN","desc":"Walker, Cass County, MN, US","color":"","precision":"city/town"},"geometry":{"type":"Point","coordinates":[-94.585026,47.101709]}},{"type":"Feature","properties":{"racename":"Superior Tail Fall Races","city":"Lutsen","state":"MN","region":"midwest","date":"September","type_mara":"x","type_half":"","type_relay":"","type_10k":"","type_5k":"","url":"https://www.superiorfalltrailrace.com/","source":"https://runningintheusa.com/classic/list/mn/upcoming/marathon","name":"Lutsen, MN","desc":"Lutsen, Cook County, MN, US","color":"","precision":"city/town"},"geometry":{"type":"Point","coordinates":[-90.674858,47.647119]}},{"type":"Feature","properties":{"racename":"Ely","city":"Ely","state":"MN","region":"midwest","date":"September","type_mara":"x","type_half":"x","type_relay":"","type_10k":"","type_5k":"x","url":"http://www.elymarathon.com/","source":"http://findmymarathon.com/calendar-state.php?state=Minnesota","name":"Ely, MN","desc":"Ely, Saint Louis County, MN, US","color":"","precision":"city/town"},"geometry":{"type":"Point","coordinates":[-91.867087,47.903237]}},{"type":"Feature","properties":{"racename":"Maah Daah Hey Trail","city":"Medora","state":"ND","region":"midwest","date":"July","type_mara":"x","type_half":"x","type_relay":"","type_10k":"x","type_5k":"x","url":"http://www.experienceland.org/maah-daah-hey-trail-run/","source":"https://runningintheusa.com/classic/list/nd/upcoming/marathon","name":"Medora, ND","desc":"Medora, Billings County, ND, US","color":"","precision":"city/town"},"geometry":{"type":"Point","coordinates":[-103.524354,46.913903]}},{"type":"Feature","properties":{"racename":"Fargo","city":"Fargo","state":"ND","region":"midwest","date":"May","type_mara":"x","type_half":"x","type_relay":"x","type_10k":"x","type_5k":"x","url":"https://fargomarathon.com","source":"http://www.findmymarathon.com/calendar-state.php?state=North%20Dakota","name":"Fargo, ND","desc":"Fargo, Cass County, ND, US","color":"","precision":"city/town"},"geometry":{"type":"Point","coordinates":[-96.789821,46.877229]}},{"type":"Feature","properties":{"racename":"Wild Hog","city":"Grand Forks","state":"ND","region":"midwest","date":"September","type_mara":"x","type_half":"x","type_relay":"x","type_10k":"x","type_5k":"x","url":"https://www.gfmarathon.com","source":"http://www.findmymarathon.com/calendar-state.php?state=North%20Dakota","name":"Grand Forks, ND","desc":"Grand Forks, Grand Forks County, ND, US","color":"","precision":"city/town"},"geometry":{"type":"Point","coordinates":[-97.059203,47.907824]}},{"type":"Feature","properties":{"racename":"Bismarck","city":"Bismarck","state":"ND","region":"midwest","date":"September","type_mara":"x","type_half":"x","type_relay":"x","type_10k":"x","type_5k":"x","url":"https://thebismarckmarathon.com","source":"http://www.findmymarathon.com/calendar-state.php?state=North%20Dakota","name":"Bismarck, ND","desc":"Bismarck, Burleigh County, ND, US","color":"","precision":"city/town"},"geometry":{"type":"Point","coordinates":[-100.783739,46.808327]}},{"type":"Feature","properties":{"racename":"Valley 7 Lake","city":"Valley","state":"NE","region":"midwest","date":"April","type_mara":"x","type_half":"x","type_relay":"x","type_10k":"","type_5k":"","url":"https://www.valley7lakesmarathon.com/","source":"https://runningintheusa.com/classic/list/ne/upcoming/marathon","name":"Valley, NE","desc":"Valley, Douglas County, NE, US","color":"","precision":"city/town"},"geometry":{"type":"Point","coordinates":[-96.345978,41.312758]}},{"type":"Feature","properties":{"racename":"Logan View Raider Run","city":"Hooper","state":"NE","region":"midwest","date":"August","type_mara":"x","type_half":"x","type_relay":"","type_10k":"","type_5k":"x","url":"http://www.loganviewmarathon.com/","source":"http://www.findmymarathon.com/calendar-state.php?state=Nebraska","name":"Hooper, NE","desc":"Hooper, Dodge County, NE, US","color":"","precision":"city/town"},"geometry":{"type":"Point","coordinates":[-96.547677,41.610628]}},{"type":"Feature","properties":{"racename":"Nebraska State Fair","city":"Grand Island","state":"NE","region":"midwest","date":"August","type_mara":"x","type_half":"x","type_relay":"x","type_10k":"","type_5k":"x","url":"http://www.statefairmarathon.org/","source":"http://www.findmymarathon.com/calendar-state.php?state=Nebraska","name":"Grand Island, NE","desc":"Grand Island, Hall County, NE, US","color":"","precision":"city/town"},"geometry":{"type":"Point","coordinates":[-98.338685,40.924271]}},{"type":"Feature","properties":{"racename":"Sandhills","city":"Valentine","state":"NE","region":"midwest","date":"June","type_mara":"x","type_half":"x","type_relay":"","type_10k":"","type_5k":"","url":"http://sandhillsmarathon.net/","source":"http://www.findmymarathon.com/calendar-state.php?state=Nebraska","name":"Valentine, NE","desc":"Valentine, Cherry County, NE, US","color":"","precision":"city/town"},"geometry":{"type":"Point","coordinates":[-100.550967,42.872783]}},{"type":"Feature","properties":{"racename":"Lincoln","city":"Lincoln","state":"NE","region":"midwest","date":"May","type_mara":"x","type_half":"x","type_relay":"","type_10k":"","type_5k":"","url":"https://www.lincolnmarathon.org/","source":"https://runningintheusa.com/classic/list/ne/upcoming/marathon","name":"Lincoln, NE","desc":"Lincoln, Lancaster County, NE, US","color":"","precision":"city/town"},"geometry":{"type":"Point","coordinates":[-96.667821,40.8]}},{"type":"Feature","properties":{"racename":"Chris Jarvis Autumn RIver Run","city":"North Platte","state":"NE","region":"midwest","date":"October","type_mara":"x","type_half":"x","type_relay":"","type_10k":"","type_5k":"x","url":"http://www.autumnriverrun.com/","source":"http://www.findmymarathon.com/calendar-state.php?state=Nebraska","name":"North Platte, NE","desc":"North Platte, Lincoln County, NE, US","color":"","precision":"city/town"},"geometry":{"type":"Point","coordinates":[-100.765423,41.123887]}},{"type":"Feature","properties":{"racename":"Nebraska","city":"Omaha","state":"NE","region":"midwest","date":"October","type_mara":"x","type_half":"x","type_relay":"","type_10k":"","type_5k":"x","url":"https://nebraskamarathon.org/","source":"http://www.findmymarathon.com/calendar-state.php?state=Nebraska","name":"Omaha, NE","desc":"Omaha, Douglas County, NE, US","color":"","precision":"city/town"},"geometry":{"type":"Point","coordinates":[-95.937873,41.258732]}},{"type":"Feature","properties":{"racename":"Oregon Trail Run of Nebraska","city":"Hebron","state":"NE","region":"midwest","date":"October","type_mara":"x","type_half":"x","type_relay":"","type_10k":"","type_5k":"","url":"http://oregontrailrun.com/","source":"http://www.findmymarathon.com/calendar-state.php?state=Nebraska","name":"Hebron, NE","desc":"Hebron, Thayer County, NE, US","color":"","precision":"city/town"},"geometry":{"type":"Point","coordinates":[-97.585875,40.166393]}},{"type":"Feature","properties":{"racename":"Platte Valley Companies Monument","city":"Scottsbluff","state":"NE","region":"midwest","date":"September","type_mara":"x","type_half":"x","type_relay":"","type_10k":"","type_5k":"x","url":"http://www.monumentmarathon.com/","source":"https://runningintheusa.com/classic/list/ne/upcoming/marathon","name":"Scottsbluff, NE","desc":"Scottsbluff, Scotts Bluff County, NE, US","color":"","precision":"city/town"},"geometry":{"type":"Point","coordinates":[-103.667166,41.866634]}},{"type":"Feature","properties":{"racename":"Omaha","city":"Omaha","state":"NE","region":"midwest","date":"September","type_mara":"x","type_half":"x","type_relay":"","type_10k":"x","type_5k":"x","url":"http://omahamarathon.com/","source":"http://www.findmymarathon.com/calendar-state.php?state=Nebraska","name":"Omaha, NE","desc":"Omaha, Douglas County, NE, US","color":"","precision":"city/town"},"geometry":{"type":"Point","coordinates":[-95.937873,41.258732]}},{"type":"Feature","properties":{"racename":"Heartland","city":"Omaha","state":"NE","region":"midwest","date":"September","type_mara":"x","type_half":"x","type_relay":"x","type_10k":"x","type_5k":"","url":"https://heartlandmarathon.org/","source":"http://www.findmymarathon.com/calendar-state.php?state=Nebraska","name":"Omaha, NE","desc":"Omaha, Douglas County, NE, US","color":"","precision":"city/town"},"geometry":{"type":"Point","coordinates":[-95.937873,41.258732]}},{"type":"Feature","properties":{"racename":"Leading Ladies","city":"Spearfish","state":"SD","region":"midwest","date":"August","type_mara":"x","type_half":"x","type_relay":"","type_10k":"","type_5k":"","url":"https://www.leadingladiesmarathon.com","source":"http://findmymarathon.com/calendar-state.php?state=South%20Dakota","name":"Spearfish, SD","desc":"Spearfish, Lawrence County, SD, US","color":"","precision":"city/town"},"geometry":{"type":"Point","coordinates":[-103.85937,44.490817]}},{"type":"Feature","properties":{"racename":"Deadwood Mickelson Trail","city":"Deadwood","state":"SD","region":"midwest","date":"June","type_mara":"x","type_half":"x","type_relay":"x","type_10k":"","type_5k":"x","url":"http://www.deadwoodmickelsontrailmarathon.com","source":"http://findmymarathon.com/calendar-state.php?state=South%20Dakota","name":"Deadwood, SD","desc":"Deadwood, Lawrence County, SD, US","color":"","precision":"city/town"},"geometry":{"type":"Point","coordinates":[-103.729642,44.376651]}},{"type":"Feature","properties":{"racename":"Swan Lake","city":"Viborg","state":"SD","region":"midwest","date":"June","type_mara":"x","type_half":"x","type_relay":"x","type_10k":"","type_5k":"x","url":"http://www.myslcc.com/marathon/","source":"http://findmymarathon.com/calendar-state.php?state=South%20Dakota","name":"Viborg, SD","desc":"Viborg, Turner County, SD, US","color":"","precision":"city/town"},"geometry":{"type":"Point","coordinates":[-97.081441,43.170266]}},{"type":"Feature","properties":{"racename":"Brookings","city":"Brookings","state":"SD","region":"midwest","date":"May","type_mara":"x","type_half":"x","type_relay":"x","type_10k":"","type_5k":"x","url":"http://www.brookingsmarathon.com","source":"http://findmymarathon.com/calendar-state.php?state=South%20Dakota","name":"Brookings, SD","desc":"Brookings, Brookings County, SD, US","color":"","precision":"city/town"},"geometry":{"type":"Point","coordinates":[-96.79844,44.311461]}},{"type":"Feature","properties":{"racename":"Run Crazy Horse","city":"Hill City","state":"SD","region":"midwest","date":"October","type_mara":"x","type_half":"x","type_relay":"x","type_10k":"","type_5k":"x","url":"http://www.runcrazyhorse.com","source":"http://findmymarathon.com/calendar-state.php?state=South%20Dakota","name":"Hill City, SD","desc":"Hill City, Pennington County, SD, US","color":"","precision":"city/town"},"geometry":{"type":"Point","coordinates":[-103.575193,43.932486]}},{"type":"Feature","properties":{"racename":"Sioux Falls","city":"Sioux Falls","state":"SD","region":"midwest","date":"September","type_mara":"x","type_half":"x","type_relay":"x","type_10k":"x","type_5k":"x","url":"https://siouxfallsmarathon.com","source":"http://findmymarathon.com/calendar-state.php?state=South%20Dakota","name":"Sioux Falls, SD","desc":"Sioux Falls, Minnehaha County, SD, US","color":"","precision":"city/town"},"geometry":{"type":"Point","coordinates":[-96.700327,43.549975]}},{"type":"Feature","properties":{"racename":"Sundance to Spearfish","city":"Spearfish","state":"SD","region":"midwest","date":"September","type_mara":"x","type_half":"","type_relay":"","type_10k":"","type_5k":"","url":"https://oysterriverrunningcompany.redpodium.com/sundance-to-spearfish-marathon?RL=1","source":"http://findmymarathon.com/calendar-state.php?state=South%20Dakota","name":"Spearfish, SD","desc":"Spearfish, Lawrence County, SD, US","color":"","precision":"city/town"},"geometry":{"type":"Point","coordinates":[-103.85937,44.490817]}},{"type":"Feature","properties":{"racename":"Black Hills Veteran March","city":"Rochford","state":"SD","region":"midwest","date":"September","type_mara":"x","type_half":"","type_relay":"x","type_10k":"","type_5k":"","url":"http://blackhillsveteranmarch.com/","source":"https://runningintheusa.com/classic/list/sd/upcoming/marathon","name":"Rochford, SD","desc":"Rochford, Pennington County, SD, US","color":"","precision":"city/town"},"geometry":{"type":"Point","coordinates":[-103.719727,44.124325]}},{"type":"Feature","properties":{"racename":"Milwaukee","city":"Milwaukee","state":"WI","region":"midwest","date":"April","type_mara":"x","type_half":"x","type_relay":"","type_10k":"","type_5k":"x","url":"http://runmilwaukee.com/","source":"https://runningintheusa.com/classic/list/wi/upcoming/marathon","name":"Milwaukee, WI","desc":"Milwaukee, Milwaukee County, WI, US","color":"","precision":"city/town"},"geometry":{"type":"Point","coordinates":[-87.922497,43.034993]}},{"type":"Feature","properties":{"racename":"Trailbreaker","city":"Waukesha","state":"WI","region":"midwest","date":"April","type_mara":"x","type_half":"x","type_relay":"","type_10k":"x","type_5k":"x","url":"http://www.runthetrailbreaker.com/","source":"https://runningintheusa.com/classic/list/wi/upcoming/marathon","name":"Waukesha, WI","desc":"Waukesha, Waukesha County, WI, US","color":"","precision":"city/town"},"geometry":{"type":"Point","coordinates":[-88.231481,43.011678]}},{"type":"Feature","properties":{"racename":"Wausau","city":"Wausau","state":"WI","region":"midwest","date":"August","type_mara":"x","type_half":"x","type_relay":"x","type_10k":"","type_5k":"","url":"https://www.visitwausau.com/wausau-marathon","source":"https://runningintheusa.com/classic/list/wi/upcoming/marathon","name":"Wausau, WI","desc":"Wausau, Marathon County, WI, US","color":"","precision":"city/town"},"geometry":{"type":"Point","coordinates":[-89.629824,44.959602]}},{"type":"Feature","properties":{"racename":"Rockin' Chocolate","city":"Madison","state":"WI","region":"midwest","date":"August","type_mara":"x","type_half":"x","type_relay":"x","type_10k":"","type_5k":"","url":"http://www.runmadcity.com/","source":"https://runningintheusa.com/classic/list/wi/upcoming/marathon","name":"Madison, WI","desc":"Madison, Dane County, WI, US","color":"","precision":"city/town"},"geometry":{"type":"Point","coordinates":[-89.383761,43.074761]}},{"type":"Feature","properties":{"racename":"Pettit Indoor","city":"Milwaukee","state":"WI","region":"midwest","date":"January","type_mara":"x","type_half":"x","type_relay":"x","type_10k":"","type_5k":"","url":"http://www.pettitindoormarathon.com/","source":"https://runningintheusa.com/classic/list/wi/upcoming/marathon","name":"Milwaukee, WI","desc":"Milwaukee, Milwaukee County, WI, US","color":"","precision":"city/town"},"geometry":{"type":"Point","coordinates":[-87.922497,43.034993]}},{"type":"Feature","properties":{"racename":"HFM Maritime","city":"Manitowoc","state":"WI","region":"midwest","date":"June","type_mara":"x","type_half":"x","type_relay":"x","type_10k":"","type_5k":"","url":"http://www.maritimemarathon.org/","source":"https://runningintheusa.com/classic/list/wi/upcoming/marathon","name":"Manitowoc, WI","desc":"Manitowoc, Manitowoc County, WI, US","color":"","precision":"city/town"},"geometry":{"type":"Point","coordinates":[-87.657584,44.088606]}},{"type":"Feature","properties":{"racename":"Dances with Dirt Devil's Lake","city":"Barboo","state":"WI","region":"midwest","date":"June","type_mara":"x","type_half":"x","type_relay":"","type_10k":"x","type_5k":"","url":"http://www.dwddevilslake.com/","source":"https://runningintheusa.com/classic/list/wi/upcoming/marathon","name":"Barboo, WI","desc":"WI, US","color":"","precision":"state/province"},"geometry":{"type":"Point","coordinates":[-89.688464,44.430898]}},{"type":"Feature","properties":{"racename":"Wisconsin","city":"Kenosha","state":"WI","region":"midwest","date":"May","type_mara":"x","type_half":"x","type_relay":"","type_10k":"","type_5k":"x","url":"http://wisconsinmarathon.com/","source":"https://runningintheusa.com/classic/list/wi/upcoming/marathon","name":"Kenosha, WI","desc":"Kenosha, Kenosha County, WI, US","color":"","precision":"city/town"},"geometry":{"type":"Point","coordinates":[-87.821226,42.584677]}},{"type":"Feature","properties":{"racename":"Eau Claire","city":"Eau Claire","state":"WI","region":"midwest","date":"May","type_mara":"x","type_half":"x","type_relay":"x","type_10k":"","type_5k":"x","url":"http://www.eauclairemarathon.com/","source":"https://runningintheusa.com/classic/list/wi/upcoming/marathon","name":"Eau Claire, WI","desc":"Eau Claire, Eau Claire County, WI, US","color":"","precision":"city/town"},"geometry":{"type":"Point","coordinates":[-91.498494,44.811349]}},{"type":"Feature","properties":{"racename":"Journeys","city":"Eagle River","state":"WI","region":"midwest","date":"May","type_mara":"x","type_half":"x","type_relay":"","type_10k":"","type_5k":"x","url":"https://eagleriver.org/featured/journeys-marathon/","source":"https://runningintheusa.com/classic/list/wi/upcoming/marathon","name":"Eagle River, WI","desc":"Eagle River, Vilas County, WI, US","color":"","precision":"city/town"},"geometry":{"type":"Point","coordinates":[-89.244299,45.917176]}},{"type":"Feature","properties":{"racename":"Madeline Island","city":"La Pointe","state":"WI","region":"midwest","date":"May","type_mara":"x","type_half":"x","type_relay":"","type_10k":"","type_5k":"","url":"https://www.madelineislandmarathon.com/","source":"https://runningintheusa.com/classic/list/wi/upcoming/marathon","name":"La Pointe, WI","desc":"La Pointe, Ashland County, WI, US","color":"","precision":"city/town"},"geometry":{"type":"Point","coordinates":[-90.786579,46.779104]}},{"type":"Feature","properties":{"racename":"Cellcom Green Bay","city":"Green Bay","state":"WI","region":"midwest","date":"May","type_mara":"x","type_half":"x","type_relay":"x","type_10k":"","type_5k":"x","url":"http://www.cellcomgreenbaymarathon.com/","source":"https://runningintheusa.com/classic/list/wi/upcoming/marathon","name":"Green Bay, WI","desc":"Green Bay, Brown County, WI, US","color":"","precision":"city/town"},"geometry":{"type":"Point","coordinates":[-88.012579,44.512638]}},{"type":"Feature","properties":{"racename":"Madison","city":"Madison","state":"WI","region":"midwest","date":"November","type_mara":"x","type_half":"x","type_relay":"","type_10k":"","type_5k":"","url":"http://www.madisonmarathon.org/","source":"https://runningintheusa.com/classic/list/wi/upcoming/marathon","name":"Madison, WI","desc":"Madison, Dane County, WI, US","color":"","precision":"city/town"},"geometry":{"type":"Point","coordinates":[-89.383761,43.074761]}},{"type":"Feature","properties":{"racename":"Milwaukee Lakefront","city":"Milwaukee","state":"WI","region":"midwest","date":"October","type_mara":"x","type_half":"","type_relay":"","type_10k":"","type_5k":"x","url":"https://www.milwaukeelakefrontmarathon.org/","source":"https://runningintheusa.com/classic/list/wi/upcoming/marathon","name":"Milwaukee, WI","desc":"Milwaukee, Milwaukee County, WI, US","color":"","precision":"city/town"},"geometry":{"type":"Point","coordinates":[-87.922497,43.034993]}},{"type":"Feature","properties":{"racename":"Gandy Dancer Trail","city":"Luck","state":"WI","region":"midwest","date":"October","type_mara":"x","type_half":"x","type_relay":"x","type_10k":"","type_5k":"x","url":"http://www.gandymarathon.com/","source":"https://runningintheusa.com/classic/list/wi/upcoming/marathon","name":"Luck, WI","desc":"Luck, Polk County, WI, US","color":"","precision":"city/town"},"geometry":{"type":"Point","coordinates":[-92.4827,45.576066]}},{"type":"Feature","properties":{"racename":"Whistlestop","city":"Ashland","state":"WI","region":"midwest","date":"October","type_mara":"x","type_half":"x","type_relay":"","type_10k":"x","type_5k":"x","url":"https://www.whistlestopmarathon.com/","source":"https://runningintheusa.com/classic/list/wi/upcoming/marathon","name":"Ashland, WI","desc":"Ashland, Ashland County, WI, US","color":"","precision":"city/town"},"geometry":{"type":"Point","coordinates":[-90.883917,46.592757]}},{"type":"Feature","properties":{"racename":"Fox Cities","city":"Appleton","state":"WI","region":"midwest","date":"September","type_mara":"x","type_half":"x","type_relay":"x","type_10k":"","type_5k":"x","url":"http://foxcitiesmarathon.org/","source":"https://runningintheusa.com/classic/list/wi/upcoming/marathon","name":"Appleton, WI","desc":"Appleton, Outagamie County, WI, US","color":"","precision":"city/town"},"geometry":{"type":"Point","coordinates":[-88.40676,44.261134]}},{"type":"Feature","properties":{"racename":"American Birkebeiner Trail","city":"Hayward","state":"WI","region":"midwest","date":"September","type_mara":"x","type_half":"x","type_relay":"x","type_10k":"","type_5k":"x","url":"https://www.birkie.com/run/events/birkie-trail-run/","source":"https://runningintheusa.com/classic/list/wi/upcoming/marathon","name":"Hayward, WI","desc":"Hayward, Sawyer County, WI, US","color":"","precision":"city/town"},"geometry":{"type":"Point","coordinates":[-91.484873,46.012968]}}]}